City,Latitude,Longitude,PM2.5,Noise,Water_pH
Mumbai,19.0760,72.8777,110,65,7.2
Pune,18.5204,73.8567,85,70,6.9
Delhi,28.7041,77.1025,140,80,7.4
Bangalore,12.9716,77.5946,75,60,7.1
Chennai,13.0827,80.2707,90,68,6.8
